city,country,lat,lon,aqi,aqi_category,dominant_pollutant,collection_timestamp,status
Tokyo,Japan,35.687,139.7495,64.0,Good air quality,pm25,2025-11-20T14:38:31.279676,success
Jakarta,Indonesia,-6.175,106.8275,63.0,Good air quality,pm10,2025-11-20T14:38:32.165895,success
Delhi,India,28.61,77.23,14.0,Poor air quality,pm10,2025-11-20T14:38:32.973334,success
Guangzhou,China,23.13,113.26,60.0,Good air quality,pm10,2025-11-20T14:38:33.801853,success
Mumbai,India,19.0761,72.8775,19.0,Poor air quality,pm10,2025-11-20T14:38:34.638730,success
Manila,Philippines,14.5958,120.9772,87.0,Excellent air quality,o3,2025-11-20T14:38:35.539648,success
Shanghai,China,31.2286,121.4747,36.0,Low air quality,pm25,2025-11-20T14:38:36.424362,success
São Paulo,Brazil,-23.5504,-46.6339,59.0,Moderate air quality,pm10,2025-11-20T14:38:37.290207,success
Seoul,"Korea, South",37.5667,126.9833,81.0,Excellent air quality,o3,2025-11-20T14:38:38.080263,success
Mexico City,Mexico,19.4333,-99.1333,37.0,Low air quality,pm25,2025-11-20T14:38:38.908328,success
Kolkāta,India,22.5675,88.37,19.0,Poor air quality,pm10,2025-11-20T14:38:39.772175,success
Cairo,Egypt,30.0444,31.2358,41.0,Moderate air quality,pm25,2025-11-20T14:38:40.658604,success
Karachi,Pakistan,24.86,67.01,49.0,Moderate air quality,pm25,2025-11-20T14:38:41.502361,success
Dhaka,Bangladesh,23.7289,90.3944,17.0,Poor air quality,pm25,2025-11-20T14:38:42.341247,success
New York,United States,40.6943,-73.9249,79.0,Good air quality,pm10,2025-11-20T14:38:43.144467,success
Beijing,China,39.9067,116.3975,25.0,Low air quality,pm25,2025-11-20T14:38:44.137624,success
Bangkok,Thailand,13.7525,100.4942,57.0,Moderate air quality,pm10,2025-11-20T14:38:45.051103,success
Shenzhen,China,22.5415,114.0596,65.0,Good air quality,pm10,2025-11-20T14:38:45.890664,success
Moscow,Russia,55.7506,37.6175,60.0,Good air quality,pm10,2025-11-20T14:38:46.770307,success
Buenos Aires,Argentina,-34.6036,-58.3814,71.0,Good air quality,o3,2025-11-20T14:38:47.649575,success
Lagos,Nigeria,6.455,3.3841,,,,2025-11-20T14:38:48.465187,error
Bangalore,India,12.9789,77.5917,47.0,Moderate air quality,pm10,2025-11-20T14:38:49.284758,success
Ho Chi Minh City,Vietnam,10.7756,106.7019,82.0,Excellent air quality,pm25,2025-11-20T14:38:50.068191,success
Ōsaka,Japan,34.6939,135.5022,59.0,Moderate air quality,pm25,2025-11-20T14:38:50.904420,success
Chengdu,China,30.66,104.0633,36.0,Low air quality,pm25,2025-11-20T14:38:51.770098,success
Istanbul,Turkey,41.0136,28.955,48.0,Moderate air quality,pm25,2025-11-20T14:38:52.697245,success
Tehran,Iran,35.6889,51.3897,,,,2025-11-20T14:38:53.515143,error
Kinshasa,Congo (Kinshasa),-4.3219,15.3119,,,,2025-11-20T14:38:54.534430,error
Rio de Janeiro,Brazil,-22.9111,-43.2056,71.0,Good air quality,pm10,2025-11-20T14:38:55.372598,success
Chennai,India,13.0825,80.275,37.0,Low air quality,pm25,2025-11-20T14:38:56.231128,success
Xi’an,China,34.2611,108.9422,34.0,Low air quality,pm10,2025-11-20T14:38:57.053989,success
Lahore,Pakistan,31.5497,74.3436,19.0,Poor air quality,pm25,2025-11-20T14:38:57.940006,success
Chongqing,China,29.5637,106.5504,39.0,Low air quality,pm25,2025-11-20T14:38:58.800416,success
Los Angeles,United States,34.1141,-118.4068,72.0,Good air quality,pm10,2025-11-20T14:38:59.586066,success
London,United Kingdom,51.5072,-0.1275,78.0,Good air quality,no2,2025-11-20T14:39:00.461292,success
Paris,France,48.8567,2.3522,80.0,Excellent air quality,no2,2025-11-20T14:39:01.297959,success
Linyi,China,35.1038,118.3564,36.0,Low air quality,pm25,2025-11-20T14:39:02.127824,success
Dongguan,China,23.021,113.752,67.0,Good air quality,pm25,2025-11-20T14:39:02.958095,success
Baoding,China,38.874,115.464,36.0,Low air quality,pm25,2025-11-20T14:39:03.793638,success
Hyderābād,India,17.3617,78.4747,28.0,Low air quality,pm25,2025-11-20T14:39:04.592381,success
Tianjin,China,39.1336,117.2054,48.0,Moderate air quality,pm25,2025-11-20T14:39:05.382717,success
Lima,Peru,-12.06,-77.0375,65.0,Good air quality,pm25,2025-11-20T14:39:06.203842,success
Wuhan,China,30.5934,114.3046,44.0,Moderate air quality,pm25,2025-11-20T14:39:07.037552,success
Nanyang,China,32.9902,112.5285,19.0,Poor air quality,pm25,2025-11-20T14:39:07.859932,success
Hangzhou,China,30.267,120.153,39.0,Low air quality,pm25,2025-11-20T14:39:08.724513,success
Nagoya,Japan,35.1833,136.9,76.0,Good air quality,pm25,2025-11-20T14:39:09.594772,success
Luanda,Angola,-8.8383,13.2344,,,,2025-11-20T14:39:10.423892,error
Foshan,China,23.0214,113.1216,72.0,Good air quality,pm25,2025-11-20T14:39:11.251444,success
Kuala Lumpur,Malaysia,3.1686,101.698,74.0,Good air quality,pm25,2025-11-20T14:39:12.081352,success
Zhoukou,China,33.6367,114.7014,33.0,Low air quality,pm25,2025-11-20T14:39:12.957580,success
Tongshan,China,34.261,117.1859,19.0,Poor air quality,pm25,2025-11-20T14:39:13.843898,success
Hanoi,Vietnam,21.0,105.85,67.0,Good air quality,pm25,2025-11-20T14:39:14.678297,success
Chicago,United States,41.8375,-87.6866,67.0,Good air quality,pm25,2025-11-20T14:39:15.487320,success
Nanjing,China,32.0608,118.7789,52.0,Moderate air quality,pm10,2025-11-20T14:39:16.354165,success
Heze,China,35.2343,115.4796,20.0,Low air quality,pm10,2025-11-20T14:39:17.211434,success
Pune,India,18.5203,73.8567,14.0,Poor air quality,pm10,2025-11-20T14:39:18.020822,success
Jining,China,35.4151,116.5871,33.0,Low air quality,pm25,2025-11-20T14:39:18.874757,success
Bogotá,Colombia,4.7111,-74.0722,69.0,Good air quality,pm25,2025-11-20T14:39:19.741845,success
Ahmedabad,India,23.0225,72.5714,16.0,Poor air quality,pm10,2025-11-20T14:39:20.560654,success
Shenyang,China,41.8025,123.4281,62.0,Good air quality,pm25,2025-11-20T14:39:21.359710,success
Dar es Salaam,Tanzania,-6.8161,39.2803,,,,2025-11-20T14:39:22.161941,error
Khartoum,Sudan,15.6031,32.5265,,,,2025-11-20T14:39:23.012407,error
Johannesburg,South Africa,-26.2044,28.0456,76.0,Good air quality,pm10,2025-11-20T14:39:23.837856,success
Fuyang,China,32.89,115.814,31.0,Low air quality,pm25,2025-11-20T14:39:24.668244,success
Hong Kong,Hong Kong,22.3,114.2,73.0,Good air quality,o3,2025-11-20T14:39:25.470102,success
Ganzhou,China,25.831,114.933,71.0,Good air quality,o3,2025-11-20T14:39:26.351713,success
Shangqiu,China,34.415,115.656,19.0,Poor air quality,pm25,2025-11-20T14:39:27.227191,success
Cangzhou,China,38.3047,116.8387,54.0,Moderate air quality,pm25,2025-11-20T14:39:28.112187,success
Riyadh,Saudi Arabia,24.65,46.71,4.0,Poor air quality,pm10,2025-11-20T14:39:28.979309,success
Santiago,Chile,-33.4372,-70.6506,50.0,Moderate air quality,pm10,2025-11-20T14:39:29.834068,success
Zhumadian,China,33.014,114.022,39.0,Low air quality,pm25,2025-11-20T14:39:30.669759,success
Zhanjiang,China,21.2701,110.3575,59.0,Moderate air quality,pm25,2025-11-20T14:39:31.532335,success
Rangoon,Burma,16.795,96.16,,,,2025-11-20T14:39:32.329170,error
Yancheng,China,33.35,120.1569,41.0,Moderate air quality,pm25,2025-11-20T14:39:33.183744,success
Bijie,China,27.284,105.292,74.0,Good air quality,pm25,2025-11-20T14:39:34.059986,success
Xingtai,China,37.0717,114.5048,51.0,Moderate air quality,pm10,2025-11-20T14:39:34.898813,success
Hengyang,China,26.894,112.572,49.0,Moderate air quality,pm25,2025-11-20T14:39:35.752216,success
Shaoyang,China,27.2395,111.4679,39.0,Low air quality,pm25,2025-11-20T14:39:36.570633,success
Surabaya,Indonesia,-7.2458,112.7378,39.0,Low air quality,pm25,2025-11-20T14:39:37.445729,success
Sūrat,India,21.205,72.84,31.0,Low air quality,pm25,2025-11-20T14:39:38.296930,success
Quanzhou,China,24.8744,118.6757,74.0,Good air quality,o3,2025-11-20T14:39:39.178731,success
Shangrao,China,28.4551,117.9431,52.0,Moderate air quality,pm25,2025-11-20T14:39:40.007750,success
Zunyi,China,27.722,107.031,63.0,Good air quality,pm25,2025-11-20T14:39:40.861115,success
Madrid,Spain,40.4169,-3.7033,72.0,Good air quality,o3,2025-11-20T14:39:41.694404,success
Baghdad,Iraq,33.3153,44.3661,,,,2025-11-20T14:39:42.502296,error
Maoming,China,21.6627,110.9255,69.0,Good air quality,pm25,2025-11-20T14:39:43.337372,success
Miami,United States,25.784,-80.2101,61.0,Good air quality,pm10,2025-11-20T14:39:44.185216,success
Xinyang,China,32.149,114.091,53.0,Moderate air quality,pm25,2025-11-20T14:39:45.017611,success
Houston,United States,29.786,-95.3885,36.0,Low air quality,pm10,2025-11-20T14:39:45.780385,success
Singapore,Singapore,1.3,103.8,78.0,Good air quality,pm10,2025-11-20T14:39:46.621632,success
Prayagraj,India,25.4358,81.8464,23.0,Low air quality,pm25,2025-11-20T14:39:47.420642,success
Huanggang,China,30.4537,114.8724,42.0,Moderate air quality,pm25,2025-11-20T14:39:48.269511,success
Dalian,China,38.9,121.6,78.0,Good air quality,o3,2025-11-20T14:39:49.096916,success
Ankara,Turkey,39.93,32.85,50.0,Moderate air quality,pm25,2025-11-20T14:39:49.919197,success
Dallas,United States,32.7935,-96.7667,89.0,Excellent air quality,pm10,2025-11-20T14:39:50.775998,success
Qingdao,China,36.0669,120.3827,49.0,Moderate air quality,pm25,2025-11-20T14:39:51.600497,success
Yulin,China,22.654,110.181,64.0,Good air quality,pm10,2025-11-20T14:39:52.421685,success
Liaocheng,China,36.4559,115.9852,34.0,Low air quality,pm25,2025-11-20T14:39:53.218117,success
Douala,Cameroon,4.05,9.7,,,,2025-11-20T14:39:54.024877,error
Qujing,China,25.491,103.796,59.0,Moderate air quality,pm25,2025-11-20T14:39:54.876024,success
Nangandao,China,35.3036,113.9268,35.0,Low air quality,pm25,2025-11-20T14:39:55.731759,success
Addis Ababa,Ethiopia,9.03,38.74,54.0,Moderate air quality,pm10,2025-11-20T14:39:56.589554,success
Philadelphia,United States,40.0077,-75.1339,72.0,Good air quality,pm10,2025-11-20T14:39:57.407059,success
Toronto,Canada,43.7417,-79.3733,79.0,Good air quality,pm25,2025-11-20T14:39:58.228783,success
Zhengzhou,China,34.764,113.684,44.0,Moderate air quality,pm25,2025-11-20T14:39:59.060171,success
Nanchong,China,30.8372,106.1106,33.0,Low air quality,pm25,2025-11-20T14:39:59.877753,success
Jinan,China,36.6702,117.0207,56.0,Moderate air quality,pm10,2025-11-20T14:40:00.759042,success
Giza,Egypt,29.987,31.2118,41.0,Moderate air quality,pm25,2025-11-20T14:40:01.586299,success
Saint Petersburg,Russia,59.9375,30.3086,70.0,Good air quality,pm25,2025-11-20T14:40:02.419272,success
Jieyang,China,23.551,116.3727,39.0,Low air quality,pm25,2025-11-20T14:40:03.318850,success
Dezhou,China,37.436,116.359,28.0,Low air quality,pm25,2025-11-20T14:40:04.148650,success
Nairobi,Kenya,-1.2864,36.8172,71.0,Good air quality,pm25,2025-11-20T14:40:05.015790,success
Guadalajara,Mexico,20.6767,-103.3475,42.0,Moderate air quality,o3,2025-11-20T14:40:05.821900,success
Tai’an,China,36.202,117.087,37.0,Low air quality,pm25,2025-11-20T14:40:06.662950,success
Dazhou,China,31.2093,107.4678,39.0,Low air quality,pm25,2025-11-20T14:40:07.486324,success
Belo Horizonte,Brazil,-19.9281,-43.9419,54.0,Moderate air quality,pm10,2025-11-20T14:40:08.416691,success
Suzhou,China,33.648,116.964,21.0,Low air quality,pm25,2025-11-20T14:40:09.268569,success
Monterrey,Mexico,25.6844,-100.3181,47.0,Moderate air quality,pm25,2025-11-20T14:40:10.083745,success
Yongzhou,China,26.42,111.613,55.0,Moderate air quality,pm25,2025-11-20T14:40:10.912559,success
Changde,China,29.031,111.699,36.0,Low air quality,pm25,2025-11-20T14:40:11.768787,success
Xiangyang,China,32.01,112.122,45.0,Moderate air quality,pm10,2025-11-20T14:40:12.647074,success
Atlanta,United States,33.7628,-84.422,73.0,Good air quality,pm25,2025-11-20T14:40:13.490667,success
Pudong,China,31.2347,121.5064,35.0,Low air quality,pm25,2025-11-20T14:40:14.322672,success
Washington,United States,38.9047,-77.0163,78.0,Good air quality,pm25,2025-11-20T14:40:15.122195,success
Zhaotong,China,27.338,103.717,77.0,Good air quality,pm10,2025-11-20T14:40:15.963539,success
Zhangzhou,China,24.513,117.647,41.0,Moderate air quality,pm25,2025-11-20T14:40:16.786063,success
Yueyang,China,29.3647,113.1309,37.0,Low air quality,pm25,2025-11-20T14:40:17.571585,success
Melbourne,Australia,-37.8142,144.9631,88.0,Excellent air quality,o3,2025-11-20T14:40:18.439291,success
Yichun,China,27.816,114.417,68.0,Good air quality,pm25,2025-11-20T14:40:19.291953,success
Abidjan,Côte d’Ivoire,5.3364,-4.0267,,,,2025-11-20T14:40:20.109781,error
Guilin,China,25.275,110.296,60.0,Good air quality,pm25,2025-11-20T14:40:20.942671,success
Pingdingshan,China,33.7666,113.1926,39.0,Low air quality,pm25,2025-11-20T14:40:21.732008,success
Alexandria,Egypt,31.1975,29.8925,38.0,Low air quality,pm25,2025-11-20T14:40:22.556563,success
Bozhou,China,33.8463,115.7786,21.0,Low air quality,pm25,2025-11-20T14:40:23.393639,success
Sydney,Australia,-33.8667,151.2,84.0,Excellent air quality,o3,2025-11-20T14:40:24.189500,success
Barcelona,Spain,41.3833,2.1833,77.0,Good air quality,pm10,2025-11-20T14:40:25.021590,success
Yuncheng,China,35.0267,111.007,34.0,Low air quality,pm25,2025-11-20T14:40:25.809335,success
Cape Town,South Africa,-33.9253,18.4239,81.0,Excellent air quality,pm25,2025-11-20T14:40:26.690728,success
Changsha,China,28.228,112.939,37.0,Low air quality,pm25,2025-11-20T14:40:27.518896,success
Suqian,China,33.963,118.275,22.0,Low air quality,pm25,2025-11-20T14:40:28.307163,success
Jeddah,Saudi Arabia,21.5428,39.1728,36.0,Low air quality,pm10,2025-11-20T14:40:29.152351,success
Weinan,China,34.5206,109.471,48.0,Moderate air quality,pm10,2025-11-20T14:40:29.993213,success
Berlin,Germany,52.52,13.405,86.0,Excellent air quality,o3,2025-11-20T14:40:30.849222,success
Chenzhou,China,25.77,113.016,49.0,Moderate air quality,pm25,2025-11-20T14:40:31.698116,success
Jiangmen,China,22.5789,113.0815,59.0,Moderate air quality,pm10,2025-11-20T14:40:32.531660,success
Mianyang,China,31.468,104.679,31.0,Low air quality,pm25,2025-11-20T14:40:33.353029,success
Jiujiang,China,29.661,115.954,38.0,Low air quality,pm25,2025-11-20T14:40:34.189887,success
Huaihua,China,27.5698,110.0016,57.0,Moderate air quality,pm25,2025-11-20T14:40:35.026629,success
Huanglongsi,China,34.795,114.345,27.0,Low air quality,pm25,2025-11-20T14:40:35.886202,success
Taizhou,China,32.4567,119.9229,35.0,Low air quality,pm25,2025-11-20T14:40:36.674989,success
Belāhi,India,26.4,86.25,34.0,Low air quality,pm25,2025-11-20T14:40:37.534642,success
Yibin,China,28.752,104.643,39.0,Low air quality,pm25,2025-11-20T14:40:38.350875,success
Ji’an,China,27.0912,114.9668,56.0,Moderate air quality,pm25,2025-11-20T14:40:39.230160,success
Yangzhou,China,32.3944,119.4128,36.0,Low air quality,pm25,2025-11-20T14:40:40.012730,success
Kunming,China,25.0464,102.7094,58.0,Moderate air quality,pm25,2025-11-20T14:40:40.816773,success
Changchun,China,43.897,125.326,51.0,Moderate air quality,pm25,2025-11-20T14:40:41.654312,success
Lu’an,China,31.736,116.52,49.0,Moderate air quality,pm25,2025-11-20T14:40:42.474683,success
Xinpu,China,34.5966,119.2214,33.0,Low air quality,pm25,2025-11-20T14:40:43.323976,success
Langfang,China,39.5383,116.6835,40.0,Moderate air quality,pm25,2025-11-20T14:40:44.133607,success
Boston,United States,42.3188,-71.0852,28.0,Low air quality,pm10,2025-11-20T14:40:44.973126,success
Ürümqi,China,43.8225,87.6125,25.0,Low air quality,pm10,2025-11-20T14:40:45.806457,success
Suzhou,China,31.3,120.6194,36.0,Low air quality,pm25,2025-11-20T14:40:46.600536,success
Guigang,China,23.112,109.599,63.0,Good air quality,pm25,2025-11-20T14:40:47.444471,success
Shantou,China,23.354,116.682,48.0,Moderate air quality,pm25,2025-11-20T14:40:48.270873,success
Jiangguanchi,China,34.037,113.852,39.0,Low air quality,pm10,2025-11-20T14:40:49.118211,success
Kabul,Afghanistan,34.5253,69.1783,,,,2025-11-20T14:40:49.960381,error
Xiaoganzhan,China,30.918,113.957,35.0,Low air quality,pm25,2025-11-20T14:40:50.778685,success
Bamako,Mali,12.6458,-7.9922,,,,2025-11-20T14:40:51.592389,error
Kano,Nigeria,12.0,8.5167,,,,2025-11-20T14:40:52.403911,error
Luzhou,China,28.871,105.442,47.0,Moderate air quality,pm25,2025-11-20T14:40:53.279248,success
Hefei,China,31.8206,117.2273,36.0,Low air quality,pm25,2025-11-20T14:40:54.170647,success
Hengshui,China,37.739,115.669,44.0,Moderate air quality,pm10,2025-11-20T14:40:54.999254,success
Fortaleza,Brazil,-3.7275,-38.5275,75.0,Good air quality,pm25,2025-11-20T14:40:55.902190,success
Anqing,China,30.5318,117.1153,37.0,Low air quality,pm25,2025-11-20T14:40:56.783288,success
Zhangjiakou,China,40.769,114.886,78.0,Good air quality,o3,2025-11-20T14:40:57.631076,success
Zhaoqing,China,23.05,112.4667,74.0,Good air quality,pm25,2025-11-20T14:40:58.459008,success
Shijiazhuang,China,38.0425,114.51,50.0,Moderate air quality,pm10,2025-11-20T14:40:59.318579,success
Ningbo,China,29.8603,121.6245,29.0,Low air quality,pm25,2025-11-20T14:41:00.148667,success
Qiqihar,China,47.3549,123.9182,50.0,Moderate air quality,pm25,2025-11-20T14:41:01.028470,success
Phoenix,United States,33.5722,-112.0892,76.0,Good air quality,o3,2025-11-20T14:41:01.848149,success
Liuzhou,China,24.3278,109.4278,76.0,Good air quality,o3,2025-11-20T14:41:02.680858,success
Chifeng,China,42.255,118.8825,74.0,Good air quality,o3,2025-11-20T14:41:03.543141,success
Xiaoxita,China,30.692,111.287,62.0,Good air quality,pm25,2025-11-20T14:41:04.382105,success
Amman,Jordan,31.9497,35.9328,31.0,Low air quality,pm10,2025-11-20T14:41:05.219679,success
Linfen,China,36.088,111.519,47.0,Moderate air quality,pm10,2025-11-20T14:41:06.063321,success
Xianyang,China,34.3299,108.7088,30.0,Low air quality,pm25,2025-11-20T14:41:06.878129,success
Chuzhou,China,32.256,118.333,43.0,Moderate air quality,pm25,2025-11-20T14:41:07.748325,success
Kumasi,Ghana,6.7,-1.625,,,,2025-11-20T14:41:08.562622,error
Zhuzhou,China,27.829,113.133,37.0,Low air quality,pm25,2025-11-20T14:41:09.459040,success
Taiyuan,China,37.8704,112.5497,47.0,Moderate air quality,pm25,2025-11-20T14:41:10.294757,success
Qingyuan,China,23.682,113.056,71.0,Good air quality,o3,2025-11-20T14:41:11.128151,success
Meizhou,China,24.289,116.122,58.0,Moderate air quality,pm10,2025-11-20T14:41:11.975858,success
Yiyang,China,28.5549,112.356,41.0,Moderate air quality,pm25,2025-11-20T14:41:12.809988,success
Nanning,China,22.8167,108.3275,76.0,Good air quality,pm10,2025-11-20T14:41:13.649118,success
Harbin,China,45.7576,126.6409,52.0,Moderate air quality,pm10,2025-11-20T14:41:14.523977,success
Loudi,China,27.6998,111.9944,40.0,Moderate air quality,pm25,2025-11-20T14:41:15.356344,success
Abuja,Nigeria,9.0667,7.4833,,,,2025-11-20T14:41:16.172084,error
Yokohama,Japan,35.4442,139.6381,78.0,Good air quality,pm25,2025-11-20T14:41:17.023330,success
Suihua,China,46.654,126.969,39.0,Low air quality,pm25,2025-11-20T14:41:17.906525,success
Binzhou,China,37.383,117.971,48.0,Moderate air quality,pm25,2025-11-20T14:41:18.750154,success
Zaozhuang,China,34.8109,117.3238,19.0,Poor air quality,pm25,2025-11-20T14:41:19.552873,success
Detroit,United States,42.3834,-83.1024,65.0,Good air quality,pm10,2025-11-20T14:41:20.375914,success
Xiamen,China,24.4796,118.0889,60.0,Good air quality,pm25,2025-11-20T14:41:21.230399,success
Mashhad,Iran,36.3264,59.5433,,,,2025-11-20T14:41:22.069582,error
Montréal,Canada,45.5089,-73.5617,61.0,Good air quality,pm25,2025-11-20T14:41:22.903889,success
Fuzhou,China,26.0743,119.2964,68.0,Good air quality,pm10,2025-11-20T14:41:23.742045,success
Wuhu,China,31.3526,118.4331,37.0,Low air quality,pm25,2025-11-20T14:41:24.514843,success
Medan,Indonesia,3.5894,98.6739,59.0,Moderate air quality,pm10,2025-11-20T14:41:25.312685,success
Yulinshi,China,38.2858,109.7341,50.0,Moderate air quality,pm10,2025-11-20T14:41:26.198298,success
Fuzhou,China,27.949,116.358,50.0,Moderate air quality,pm25,2025-11-20T14:41:27.034899,success
Wenzhou,China,27.9938,120.6993,38.0,Low air quality,pm10,2025-11-20T14:41:27.924544,success
Changzhou,China,31.811,119.974,36.0,Low air quality,pm25,2025-11-20T14:41:28.756825,success
Puyang,China,35.7627,115.0292,37.0,Low air quality,pm25,2025-11-20T14:41:29.585904,success
Nanchang,China,28.683,115.858,51.0,Moderate air quality,pm10,2025-11-20T14:41:30.427442,success
Baicheng,China,23.903,106.619,80.0,Excellent air quality,pm10,2025-11-20T14:41:31.262239,success
Seattle,United States,47.6211,-122.3244,80.0,Excellent air quality,no2,2025-11-20T14:41:32.026782,success
Ibadan,Nigeria,7.3964,3.9167,,,,2025-11-20T14:41:32.836717,error
Jiaozuo,China,35.2157,113.2419,50.0,Moderate air quality,pm10,2025-11-20T14:41:33.670557,success
Nādampālaiyam,India,11.0125,76.9714,51.0,Moderate air quality,pm25,2025-11-20T14:41:34.476628,success
Deyang,China,31.127,104.398,37.0,Low air quality,pm25,2025-11-20T14:41:35.259411,success
Busan,"Korea, South",35.18,129.075,68.0,Good air quality,pm25,2025-11-20T14:41:36.093187,success
Hechi,China,24.693,108.085,73.0,Good air quality,pm25,2025-11-20T14:41:36.933888,success
Tangshan,China,39.6294,118.1739,46.0,Moderate air quality,pm25,2025-11-20T14:41:37.757966,success
Lucknow,India,26.85,80.95,8.0,Poor air quality,pm10,2025-11-20T14:41:38.625800,success
San Francisco,United States,37.7558,-122.4449,83.0,Excellent air quality,no2,2025-11-20T14:41:39.429333,success
Boankra,Ghana,6.6919,-1.4051,,,,2025-11-20T14:41:40.247575,error
Dubai,United Arab Emirates,25.2631,55.2972,38.0,Low air quality,pm25,2025-11-20T14:41:41.059686,success
Anshan,China,41.108,122.994,66.0,Good air quality,pm10,2025-11-20T14:41:41.911355,success
Guozhen,China,34.3609,107.1751,60.0,Good air quality,pm25,2025-11-20T14:41:42.823275,success
Baojishi,China,34.363,107.238,52.0,Moderate air quality,pm25,2025-11-20T14:41:43.659410,success
Qinzhou,China,21.981,108.654,68.0,Good air quality,pm25,2025-11-20T14:41:44.423826,success
Guiyang,China,26.647,106.63,63.0,Good air quality,pm10,2025-11-20T14:41:45.224823,success
Wuxi,China,31.5667,120.2833,50.0,Moderate air quality,pm25,2025-11-20T14:41:46.058888,success
Kannankulam,India,10.52,76.21,49.0,Moderate air quality,pm25,2025-11-20T14:41:46.951691,success
Caracas,Venezuela,10.4806,-66.9036,81.0,Excellent air quality,o3,2025-11-20T14:41:47.786310,success
Kotla Qasim Khan,Pakistan,32.5833,73.75,19.0,Poor air quality,pm25,2025-11-20T14:41:48.655998,success
Casablanca,Morocco,33.5333,-7.5833,63.0,Good air quality,pm25,2025-11-20T14:41:49.546660,success
Hanzhong,China,33.0664,107.0232,35.0,Low air quality,pm25,2025-11-20T14:41:50.368241,success
Shiyan,China,32.629,110.7987,67.0,Good air quality,pm25,2025-11-20T14:41:51.191247,success
Guang’an,China,30.4564,106.6326,37.0,Low air quality,pm25,2025-11-20T14:41:52.027963,success
Faisalabad,Pakistan,31.4167,73.0911,15.0,Poor air quality,pm25,2025-11-20T14:41:52.888060,success
Changzhi,China,36.195,113.117,44.0,Moderate air quality,pm25,2025-11-20T14:41:53.688249,success
Tongren,China,27.7316,109.1895,59.0,Moderate air quality,pm25,2025-11-20T14:41:54.539333,success
Bengbu,China,32.917,117.389,36.0,Low air quality,pm25,2025-11-20T14:41:55.381844,success
Leshan,China,29.552,103.766,40.0,Moderate air quality,pm25,2025-11-20T14:41:56.252748,success
Santa Cruz de la Sierra,Bolivia,-17.7892,-63.1975,,,,2025-11-20T14:41:57.062901,error
Neijiang,China,29.5802,105.058,33.0,Low air quality,pm25,2025-11-20T14:41:57.902581,success
Zhenjiang,China,32.188,119.424,45.0,Moderate air quality,pm25,2025-11-20T14:41:58.679178,success
Qinhuangdao,China,39.8882,119.5202,55.0,Moderate air quality,pm25,2025-11-20T14:41:59.518249,success
Bursa,Turkey,40.1833,29.05,53.0,Moderate air quality,pm25,2025-11-20T14:42:00.365773,success
Tashkent,Uzbekistan,41.3111,69.2797,,,,2025-11-20T14:42:01.198152,error
Guayaquil,Ecuador,-2.19,-79.8875,73.0,Good air quality,o3,2025-11-20T14:42:02.024323,success
Jaipur,India,26.9,75.8,18.0,Poor air quality,pm10,2025-11-20T14:42:02.844143,success
Lanzhou,China,36.0606,103.8268,60.0,Good air quality,pm10,2025-11-20T14:42:03.697672,success
Ouagadougou,Burkina Faso,12.3686,-1.5275,,,,2025-11-20T14:42:04.527395,error
Athens,Greece,37.9842,23.7281,64.0,Good air quality,pm10,2025-11-20T14:42:05.386531,success
San Diego,United States,32.8313,-117.1222,71.0,Good air quality,o3,2025-11-20T14:42:06.235004,success
Guatemala City,Guatemala,14.6417,-90.5133,,,,2025-11-20T14:42:07.036904,error
Kuwait City,Kuwait,29.3697,47.9783,4.0,Poor air quality,pm10,2025-11-20T14:42:07.876527,success
Qincheng,China,34.5815,105.7248,41.0,Moderate air quality,pm25,2025-11-20T14:42:08.702067,success
İzmir,Turkey,38.42,27.14,52.0,Moderate air quality,pm25,2025-11-20T14:42:09.559229,success
Quezon City,Philippines,14.65,121.0475,86.0,Excellent air quality,pm25,2025-11-20T14:42:10.382305,success
Kyiv,Ukraine,50.45,30.5233,80.0,Excellent air quality,pm25,2025-11-20T14:42:11.211563,success
Kottārasshēri,India,10.775,76.651,51.0,Moderate air quality,pm25,2025-11-20T14:42:12.045822,success
Meishan,China,30.0771,103.8484,38.0,Low air quality,pm25,2025-11-20T14:42:12.885102,success
Incheon,"Korea, South",37.4833,126.6333,83.0,Excellent air quality,o3,2025-11-20T14:42:13.809201,success
Ningde,China,26.6662,119.5477,73.0,Good air quality,pm25,2025-11-20T14:42:14.642968,success
Zhongshan,China,22.517,113.3925,58.0,Moderate air quality,pm10,2025-11-20T14:42:15.498049,success
Minneapolis,United States,44.9635,-93.2678,69.0,Good air quality,pm25,2025-11-20T14:42:16.297836,success
Tampa,United States,27.9945,-82.4447,55.0,Moderate air quality,o3,2025-11-20T14:42:17.136756,success
Putian,China,25.4526,119.0078,63.0,Good air quality,o3,2025-11-20T14:42:17.958913,success
Mbuji-Mayi,Congo (Kinshasa),-6.15,23.6,,,,2025-11-20T14:42:18.723242,error
Tongliao,China,43.654,122.243,59.0,Moderate air quality,pm10,2025-11-20T14:42:19.561323,success
Chaoyang,China,41.571,120.453,70.0,Good air quality,pm10,2025-11-20T14:42:20.412644,success
Hohhot,China,40.842,111.749,19.0,Poor air quality,pm25,2025-11-20T14:42:21.258238,success
Pyongyang,"Korea, North",39.0167,125.7475,,,,2025-11-20T14:42:22.070177,error
Shaoguan,China,24.811,113.597,69.0,Good air quality,pm25,2025-11-20T14:42:22.948153,success
Taichung,Taiwan,24.1439,120.6794,76.0,Good air quality,pm10,2025-11-20T14:42:23.777765,success
Cali,Colombia,3.4206,-76.5222,82.0,Excellent air quality,pm25,2025-11-20T14:42:24.631228,success
Heyuan,China,23.7443,114.7002,71.0,Good air quality,o3,2025-11-20T14:42:25.459092,success
Wuzhou,China,23.4767,111.279,48.0,Moderate air quality,pm25,2025-11-20T14:42:26.300495,success
Pretoria,South Africa,-25.7461,28.1881,64.0,Good air quality,pm10,2025-11-20T14:42:27.134115,success
Suining,China,30.533,105.593,48.0,Moderate air quality,pm10,2025-11-20T14:42:27.970296,success
Omdurman,Sudan,15.6835,32.4629,,,,2025-11-20T14:42:28.769586,error
Weihai,China,37.5133,122.1205,82.0,Excellent air quality,pm10,2025-11-20T14:42:29.645116,success
Rizhao,China,35.417,119.527,59.0,Moderate air quality,pm10,2025-11-20T14:42:30.502418,success
Malang,Indonesia,-7.98,112.62,40.0,Moderate air quality,pm25,2025-11-20T14:42:31.288164,success
Stuttgart,Germany,48.7775,9.18,83.0,Excellent air quality,pm10,2025-11-20T14:42:32.144689,success
Daqing,China,46.589,125.104,59.0,Moderate air quality,pm25,2025-11-20T14:42:32.962611,success
Rome,Italy,41.8931,12.4828,71.0,Good air quality,pm10,2025-11-20T14:42:33.785993,success
Kaohsiung,Taiwan,22.615,120.2975,56.0,Moderate air quality,pm10,2025-11-20T14:42:34.591962,success
Brooklyn,United States,40.6501,-73.9496,77.0,Good air quality,pm10,2025-11-20T14:42:35.382879,success
Xiangtan,China,27.8313,112.9454,41.0,Moderate air quality,pm25,2025-11-20T14:42:36.199297,success
Bazhou,China,31.868,106.748,51.0,Moderate air quality,pm25,2025-11-20T14:42:37.025286,success
Handan,China,36.601,114.487,33.0,Low air quality,pm25,2025-11-20T14:42:37.867957,success
Brisbane,Australia,-27.4678,153.0281,84.0,Excellent air quality,pm10,2025-11-20T14:42:38.656368,success
Jinzhou,China,41.129,121.148,53.0,Moderate air quality,pm25,2025-11-20T14:42:39.437786,success
Denver,United States,39.762,-104.8758,57.0,Moderate air quality,pm10,2025-11-20T14:42:40.218514,success
Xinzhou,China,38.416,112.734,66.0,Good air quality,pm10,2025-11-20T14:42:41.045710,success
Nanping,China,26.6418,118.1774,72.0,Good air quality,pm25,2025-11-20T14:42:41.878855,success
Gāzipura,Bangladesh,23.9234,90.3959,18.0,Poor air quality,pm25,2025-11-20T14:42:42.784760,success
Shanwei,China,22.7872,115.3756,59.0,Moderate air quality,pm25,2025-11-20T14:42:43.624606,success
Maracaibo,Venezuela,10.6333,-71.6333,62.0,Good air quality,o3,2025-11-20T14:42:44.491680,success
Chaozhou,China,23.658,116.622,76.0,Good air quality,pm25,2025-11-20T14:42:45.319981,success
Baotou,China,40.6213,109.9532,43.0,Moderate air quality,pm25,2025-11-20T14:42:46.156854,success
Longyan,China,25.076,117.017,78.0,Good air quality,pm25,2025-11-20T14:42:46.995816,success
Weifang,China,36.708,119.162,37.0,Low air quality,pm25,2025-11-20T14:42:47.844821,success
Huai’an,China,33.551,119.113,35.0,Low air quality,pm25,2025-11-20T14:42:48.674847,success
Zibo,China,36.8138,118.055,30.0,Low air quality,pm25,2025-11-20T14:42:49.484722,success
Attadappa,India,11.8689,75.3555,53.0,Moderate air quality,pm25,2025-11-20T14:42:50.316759,success
Munich,Germany,48.1375,11.575,79.0,Good air quality,pm10,2025-11-20T14:42:51.112790,success
Gulou,China,26.0865,119.298,69.0,Good air quality,pm10,2025-11-20T14:42:51.919070,success
Birmingham,United Kingdom,52.48,-1.9025,79.0,Good air quality,no2,2025-11-20T14:42:52.751039,success
Valencia,Venezuela,10.1833,-68.0,75.0,Good air quality,o3,2025-11-20T14:42:53.599948,success
Damascus,Syria,33.502,36.2981,,,,2025-11-20T14:42:54.412348,error
Chattogram,Bangladesh,22.335,91.8325,41.0,Moderate air quality,pm25,2025-11-20T14:42:55.250438,success
Brazzaville,Congo (Brazzaville),-4.2667,15.2667,,,,2025-11-20T14:42:56.090003,error
Yangjiang,China,21.857,111.983,68.0,Good air quality,pm25,2025-11-20T14:42:56.924328,success
Sanaa,Yemen,15.3483,44.2064,,,,2025-11-20T14:42:57.768843,error
Barmhān Kalān,India,19.1972,72.9722,35.0,Low air quality,pm10,2025-11-20T14:42:58.582709,success
Medellín,Colombia,6.2308,-75.5906,69.0,Good air quality,o3,2025-11-20T14:42:59.460523,success
Dingxi,China,35.608,104.592,55.0,Moderate air quality,pm25,2025-11-20T14:43:00.316527,success
Shaoxing,China,30.0511,120.5833,45.0,Moderate air quality,pm25,2025-11-20T14:43:01.155132,success
Yantai,China,37.4646,121.4478,62.0,Good air quality,pm25,2025-11-20T14:43:01.938325,success
Huizhou,China,23.112,114.416,68.0,Good air quality,o3,2025-11-20T14:43:02.707258,success
Xuanzhou,China,30.939,118.759,57.0,Moderate air quality,pm10,2025-11-20T14:43:03.538454,success
Mirzāpur,India,25.146,82.569,21.0,Low air quality,pm10,2025-11-20T14:43:04.369263,success
Hamburg,Germany,53.55,10.0,77.0,Good air quality,no2,2025-11-20T14:43:05.197955,success
Taipei,Taiwan,25.0375,121.5625,66.0,Good air quality,pm10,2025-11-20T14:43:05.983351,success
Ankang,China,32.6854,109.029,69.0,Good air quality,pm25,2025-11-20T14:43:06.833144,success
Zigong,China,29.339,104.779,26.0,Low air quality,pm25,2025-11-20T14:43:07.673517,success
Sanming,China,26.2634,117.6389,68.0,Good air quality,pm25,2025-11-20T14:43:08.532730,success
Toluca,Mexico,19.2925,-99.6569,39.0,Low air quality,o3,2025-11-20T14:43:09.358623,success
Huangshi,China,30.2011,115.039,46.0,Moderate air quality,pm10,2025-11-20T14:43:10.192959,success
Yaoundé,Cameroon,3.8667,11.5167,,,,2025-11-20T14:43:10.966503,error
Zhuhai,China,22.2742,113.5719,64.0,Good air quality,pm10,2025-11-20T14:43:11.740036,success
Huludao,China,40.711,120.837,74.0,Good air quality,pm10,2025-11-20T14:43:12.586931,success
Baoshan,China,25.112,99.161,82.0,Excellent air quality,pm25,2025-11-20T14:43:13.435929,success
Mecca,Saudi Arabia,21.4225,39.8261,33.0,Low air quality,pm10,2025-11-20T14:43:14.277372,success
Vancouver,Canada,49.25,-123.1,81.0,Excellent air quality,no2,2025-11-20T14:43:15.162935,success
Lianshan,China,40.7523,120.828,52.0,Moderate air quality,pm10,2025-11-20T14:43:16.170522,success
Beirut,Lebanon,33.8981,35.5058,,,,2025-11-20T14:43:17.043612,error
Salvador,Brazil,-12.9831,-38.4928,66.0,Good air quality,o3,2025-11-20T14:43:17.903247,success
Bucharest,Romania,44.4325,26.1039,55.0,Moderate air quality,pm25,2025-11-20T14:43:18.752710,success
Longba,China,33.3702,104.9603,42.0,Moderate air quality,pm25,2025-11-20T14:43:19.566229,success
Nāgpur,India,21.1497,79.0806,15.0,Poor air quality,pm10,2025-11-20T14:43:20.411503,success
Queens,United States,40.7498,-73.7976,81.0,Excellent air quality,pm10,2025-11-20T14:43:21.197595,success
Tieling,China,42.2237,123.726,44.0,Moderate air quality,pm25,2025-11-20T14:43:22.032846,success
Yunfu,China,22.9152,112.0445,56.0,Moderate air quality,pm10,2025-11-20T14:43:23.051061,success
Bekasi,Indonesia,-6.2333,107.0,69.0,Good air quality,pm10,2025-11-20T14:43:23.855283,success
Daegu,"Korea, South",35.8717,128.6017,70.0,Good air quality,o3,2025-11-20T14:43:24.617082,success
Ghāziābād,India,28.67,77.42,0.0,Poor air quality,pm10,2025-11-20T14:43:25.417716,success
Luoyang,China,34.6197,112.4539,44.0,Moderate air quality,pm25,2025-11-20T14:43:26.245734,success
Luohe,China,33.5804,114.0166,32.0,Low air quality,pm25,2025-11-20T14:43:27.039496,success
Algiers,Algeria,36.7325,3.0872,,,,2025-11-20T14:43:27.851028,error
Anshun,China,26.2531,105.9476,64.0,Good air quality,pm25,2025-11-20T14:43:28.730474,success
Huainan,China,32.6314,117.0194,44.0,Moderate air quality,pm25,2025-11-20T14:43:29.601357,success
Depok,Indonesia,-6.394,106.8225,71.0,Good air quality,pm10,2025-11-20T14:43:30.436174,success
Konya,Turkey,37.8667,32.4833,50.0,Moderate air quality,pm25,2025-11-20T14:43:31.273633,success
Haiphong,Vietnam,20.8651,106.6838,72.0,Good air quality,pm25,2025-11-20T14:43:32.127972,success
Yanjiang,China,30.129,104.627,38.0,Low air quality,pm25,2025-11-20T14:43:32.992439,success
Guangyuan,China,32.436,105.844,56.0,Moderate air quality,pm25,2025-11-20T14:43:33.873218,success
Baku,Azerbaijan,40.3667,49.8352,69.0,Good air quality,o3,2025-11-20T14:43:34.695579,success
Yingkou,China,40.625,122.219,71.0,Good air quality,pm10,2025-11-20T14:43:35.510642,success
Mudanjiang,China,44.5514,129.6329,43.0,Moderate air quality,pm10,2025-11-20T14:43:36.355853,success
Riverside,United States,33.9381,-117.3949,76.0,Good air quality,pm10,2025-11-20T14:43:37.137403,success
Fukuoka,Japan,33.59,130.4017,75.0,Good air quality,pm25,2025-11-20T14:43:37.937607,success
Nantong,China,31.981,120.894,34.0,Low air quality,pm25,2025-11-20T14:43:38.760505,success
Lincang,China,23.884,100.089,53.0,Moderate air quality,pm25,2025-11-20T14:43:39.590021,success
Las Vegas,United States,36.2333,-115.2654,77.0,Good air quality,o3,2025-11-20T14:43:40.414298,success
Haikou,China,20.0186,110.3488,58.0,Moderate air quality,pm10,2025-11-20T14:43:41.259959,success
Yuxi,China,24.347,102.527,54.0,Moderate air quality,pm25,2025-11-20T14:43:42.159319,success
Tangerang,Indonesia,-6.1703,106.6403,65.0,Good air quality,pm10,2025-11-20T14:43:42.997254,success
Supaul,India,26.126,86.605,34.0,Low air quality,pm10,2025-11-20T14:43:43.848551,success
Almaty,Kazakhstan,43.24,76.915,,,,2025-11-20T14:43:44.673970,error
Vienna,Austria,48.2083,16.3725,81.0,Excellent air quality,pm10,2025-11-20T14:43:45.477764,success
Eşfahān,Iran,32.6653,51.6703,,,,2025-11-20T14:43:46.257432,error
Xining,China,36.6224,101.7804,35.0,Low air quality,pm25,2025-11-20T14:43:47.100599,success
Jincheng,China,35.491,112.852,56.0,Moderate air quality,pm10,2025-11-20T14:43:47.927507,success
Baltimore,United States,39.3051,-76.6144,58.0,Moderate air quality,pm25,2025-11-20T14:43:48.746266,success
Dandong,China,40.1167,124.3833,56.0,Moderate air quality,pm25,2025-11-20T14:43:49.561366,success
Yan’an,China,36.65,109.494,56.0,Moderate air quality,pm10,2025-11-20T14:43:50.432877,success
Qinbaling,China,35.7091,107.6436,56.0,Moderate air quality,pm10,2025-11-20T14:43:51.260238,success
Gaoping,China,30.7824,106.1281,37.0,Low air quality,pm25,2025-11-20T14:43:52.127609,success
Awka,Nigeria,6.2069,7.0678,,,,2025-11-20T14:43:52.957340,error
Taizhou,China,28.6557,121.4208,38.0,Low air quality,pm25,2025-11-20T14:43:53.750956,success
Ma’anshan,China,31.669,118.507,30.0,Low air quality,pm25,2025-11-20T14:43:54.575359,success
Jiamusi,China,46.8,130.319,82.0,Excellent air quality,o3,2025-11-20T14:43:55.414607,success
Perth,Australia,-31.9558,115.8597,83.0,Excellent air quality,o3,2025-11-20T14:43:56.269149,success
Gaziantep,Turkey,37.0628,37.3792,39.0,Low air quality,pm25,2025-11-20T14:43:57.127986,success
Phnom Penh,Cambodia,11.5696,104.921,,,,2025-11-20T14:43:57.958006,error
St. Louis,United States,38.6359,-90.2451,69.0,Good air quality,pm10,2025-11-20T14:43:58.779849,success
Mogadishu,Somalia,2.0392,45.3419,,,,2025-11-20T14:43:59.600506,error
Lishui,China,28.468,119.923,59.0,Moderate air quality,pm25,2025-11-20T14:44:00.424118,success
Kowloon,Hong Kong,22.3167,114.1833,71.0,Good air quality,o3,2025-11-20T14:44:01.208102,success
Córdoba,Argentina,-31.4167,-64.1833,66.0,Good air quality,o3,2025-11-20T14:44:02.057443,success
Zamboanga City,Philippines,6.9042,122.0761,82.0,Excellent air quality,o3,2025-11-20T14:44:02.883489,success
Rawalpindi,Pakistan,33.6,73.0333,19.0,Poor air quality,pm25,2025-11-20T14:44:03.708380,success
Havana,Cuba,23.1367,-82.3589,,,,2025-11-20T14:44:04.512944,error
Chongzuo,China,22.377,107.365,73.0,Good air quality,pm10,2025-11-20T14:44:05.377138,success
Portland,United States,45.5371,-122.65,88.0,Excellent air quality,no2,2025-11-20T14:44:06.246387,success
Laibin,China,23.7501,109.2212,79.0,Good air quality,pm25,2025-11-20T14:44:07.072645,success
San Antonio,United States,29.4632,-98.5238,63.0,Good air quality,pm10,2025-11-20T14:44:07.863590,success
Vadodara,India,22.3,73.2,18.0,Poor air quality,pm10,2025-11-20T14:44:08.722633,success
Qingyang,China,24.7816,118.5517,73.0,Good air quality,o3,2025-11-20T14:44:09.544664,success
Rājkot,India,22.3,70.7833,23.0,Low air quality,pm25,2025-11-20T14:44:10.372057,success
Shangzhou,China,33.8734,109.9186,57.0,Moderate air quality,pm10,2025-11-20T14:44:11.203827,success
Vishākhapatnam,India,17.7042,83.2978,60.0,Good air quality,o3,2025-11-20T14:44:12.046849,success
Shengli,China,37.434,118.6746,57.0,Moderate air quality,pm10,2025-11-20T14:44:12.885393,success
Sanmenxia,China,34.7732,111.2004,41.0,Moderate air quality,pm25,2025-11-20T14:44:13.727488,success
Warsaw,Poland,52.23,21.0111,55.0,Moderate air quality,pm25,2025-11-20T14:44:14.553734,success
Gujranwala,Pakistan,32.1567,74.19,17.0,Poor air quality,pm25,2025-11-20T14:44:15.447900,success
Hezhou,China,24.4042,111.5672,64.0,Good air quality,pm25,2025-11-20T14:44:16.304070,success
Aleppo,Syria,36.2319,37.1681,,,,2025-11-20T14:44:17.105078,error
Tijuana,Mexico,32.525,-117.0333,61.0,Good air quality,pm25,2025-11-20T14:44:17.940712,success
Puning,China,23.298,116.166,48.0,Moderate air quality,pm25,2025-11-20T14:44:18.759386,success
Indore,India,22.7167,75.8472,34.0,Low air quality,pm10,2025-11-20T14:44:19.563711,success
Minsk,Belarus,53.9006,27.5586,78.0,Good air quality,pm25,2025-11-20T14:44:20.414316,success
Karaj,Iran,35.8292,50.9675,,,,2025-11-20T14:44:21.218702,error
Kananga,Congo (Kinshasa),-5.897,22.4488,,,,2025-11-20T14:44:22.070646,error
Huaibei,China,33.956,116.798,19.0,Poor air quality,pm25,2025-11-20T14:44:22.892960,success
Peshawar,Pakistan,34.0144,71.5675,30.0,Low air quality,pm25,2025-11-20T14:44:23.745773,success
Sacramento,United States,38.5677,-121.4685,81.0,Excellent air quality,o3,2025-11-20T14:44:24.580471,success
Sapporo,Japan,43.0619,141.3544,80.0,Excellent air quality,o3,2025-11-20T14:44:25.405767,success
Tilburg,Netherlands,51.5572,5.0911,71.0,Good air quality,pm25,2025-11-20T14:44:26.277909,success
Austin,United States,30.3005,-97.7522,76.0,Good air quality,pm10,2025-11-20T14:44:27.135611,success
Orlando,United States,28.4773,-81.337,58.0,Moderate air quality,o3,2025-11-20T14:44:27.965296,success
Davao,Philippines,7.07,125.6,83.0,Excellent air quality,pm25,2025-11-20T14:44:28.790991,success
Songjiang,China,31.0058,121.2333,36.0,Low air quality,pm25,2025-11-20T14:44:29.633161,success
Yinchuan,China,38.485,106.225,33.0,Low air quality,pm10,2025-11-20T14:44:30.501653,success
Abhepur,India,39.41,116.38,38.0,Low air quality,pm25,2025-11-20T14:44:31.385364,success
Thāne,India,19.1972,72.9722,35.0,Low air quality,pm10,2025-11-20T14:44:32.189605,success
Multan,Pakistan,30.1978,71.4697,15.0,Poor air quality,pm25,2025-11-20T14:44:33.034640,success
Port Harcourt,Nigeria,4.8242,7.0336,,,,2025-11-20T14:44:33.846415,error
Fushun,China,41.881,123.957,36.0,Low air quality,pm25,2025-11-20T14:44:34.671682,success
Tainan,Taiwan,22.9833,120.1833,58.0,Moderate air quality,pm25,2025-11-20T14:44:35.474570,success
Pingliang,China,35.5424,106.6649,58.0,Moderate air quality,pm10,2025-11-20T14:44:36.291939,success
Siping,China,43.1668,124.3506,46.0,Moderate air quality,pm10,2025-11-20T14:44:37.111792,success
San Juan,Puerto Rico,18.3985,-66.061,79.0,Good air quality,o3,2025-11-20T14:44:37.978102,success
Pingxiang,China,27.659,113.887,56.0,Moderate air quality,pm25,2025-11-20T14:44:38.799439,success
Bhopāl,India,23.2599,77.4126,15.0,Poor air quality,pm10,2025-11-20T14:44:39.624481,success
Mosul,Iraq,36.3667,43.1167,,,,2025-11-20T14:44:40.446623,error
Diyarbakır,Turkey,37.91,40.24,53.0,Moderate air quality,pm25,2025-11-20T14:44:41.272935,success
Lubumbashi,Congo (Kinshasa),-11.6647,27.4794,,,,2025-11-20T14:44:42.097958,error
Benin City,Nigeria,6.3333,5.6222,,,,2025-11-20T14:44:42.907175,error
Curitiba,Brazil,-25.4297,-49.2719,58.0,Moderate air quality,pm10,2025-11-20T14:44:43.745296,success
San Jose,United States,37.3012,-121.848,79.0,Good air quality,o3,2025-11-20T14:44:44.606639,success
Shuyangzha,China,34.1299,118.7734,27.0,Low air quality,pm25,2025-11-20T14:44:45.488467,success
Adana,Turkey,37.0,35.3213,54.0,Moderate air quality,pm10,2025-11-20T14:44:46.324318,success
Quito,Ecuador,-0.22,-78.5125,68.0,Good air quality,o3,2025-11-20T14:44:47.159117,success
Āgra,India,27.18,78.02,18.0,Poor air quality,pm10,2025-11-20T14:44:47.945286,success
Peyanvilai,India,8.9,77.9833,40.0,Moderate air quality,pm25,2025-11-20T14:44:48.758770,success
Lusaka,Zambia,-15.4167,28.2833,,,,2025-11-20T14:44:49.562914,error
Indianapolis,United States,39.7771,-86.1458,82.0,Excellent air quality,pm25,2025-11-20T14:44:50.372280,success
Hyderabad City,Pakistan,25.3792,68.3683,31.0,Low air quality,pm25,2025-11-20T14:44:51.236550,success
Pimpri-Chinchwad,India,18.6186,73.8037,98.0,Excellent air quality,pm10,2025-11-20T14:44:52.009843,success
Maracay,Venezuela,10.2469,-67.5961,76.0,Good air quality,o3,2025-11-20T14:44:52.991884,success
Masqaţ,Oman,23.614,58.5911,,,,2025-11-20T14:44:53.797730,error
Montevideo,Uruguay,-34.9056,-56.1842,,,,2025-11-20T14:44:54.598007,error
Pittsburgh,United States,40.4397,-79.9763,56.0,Moderate air quality,pm25,2025-11-20T14:44:55.356200,success
Cincinnati,United States,39.1413,-84.506,74.0,Good air quality,pm25,2025-11-20T14:44:56.191490,success
Manhattan,United States,40.7834,-73.9662,79.0,Good air quality,pm10,2025-11-20T14:44:56.971015,success
Kansas City,United States,39.1238,-94.5541,55.0,Moderate air quality,pm25,2025-11-20T14:44:57.836659,success
Budapest,Hungary,47.4983,19.0408,58.0,Moderate air quality,pm10,2025-11-20T14:44:58.672224,success
Patna,India,25.594,85.1376,33.0,Low air quality,pm10,2025-11-20T14:44:59.516954,success
Kampala,Uganda,0.3136,32.5811,51.0,Moderate air quality,pm25,2025-11-20T14:45:00.404214,success
Beihai,China,21.481,109.12,60.0,Good air quality,pm25,2025-11-20T14:45:01.264212,success
Sanzhou,China,30.82,108.4,38.0,Low air quality,pm25,2025-11-20T14:45:02.092347,success
Cleveland,United States,41.4764,-81.6805,56.0,Moderate air quality,pm10,2025-11-20T14:45:02.968656,success
Conakry,Guinea,9.5092,-13.7122,,,,2025-11-20T14:45:03.785709,error
Ximeicun,China,24.9612,118.3849,73.0,Good air quality,o3,2025-11-20T14:45:04.641129,success
Caloocan City,Philippines,14.65,120.97,85.0,Excellent air quality,pm25,2025-11-20T14:45:05.481809,success
Ecatepec,Mexico,19.6097,-99.06,46.0,Moderate air quality,pm25,2025-11-20T14:45:06.321765,success
Yushan,China,31.322,120.985,36.0,Low air quality,pm25,2025-11-20T14:45:07.147038,success
Fuxin,China,42.022,121.67,35.0,Low air quality,pm25,2025-11-20T14:45:07.937880,success
Novosibirsk,Russia,55.05,82.95,,,,2025-11-20T14:45:08.813168,error
Bilāspur,India,22.09,82.15,31.0,Low air quality,pm10,2025-11-20T14:45:09.632327,success
Semarang,Indonesia,-6.99,110.4225,50.0,Moderate air quality,pm25,2025-11-20T14:45:10.495316,success
Jingdezhen,China,29.2917,117.1986,46.0,Moderate air quality,pm25,2025-11-20T14:45:11.317326,success
Ludhiāna,India,30.91,75.85,34.0,Low air quality,pm10,2025-11-20T14:45:12.146414,success
Liaoyang,China,41.279,123.176,68.0,Good air quality,pm10,2025-11-20T14:45:12.963637,success
Jiangyin,China,31.839,120.295,39.0,Low air quality,pm25,2025-11-20T14:45:13.805020,success
Valencia,Spain,39.47,-0.3764,81.0,Excellent air quality,o3,2025-11-20T14:45:14.626124,success
Shuozhou,China,39.3317,112.4329,38.0,Low air quality,pm10,2025-11-20T14:45:15.567528,success
León de los Aldama,Mexico,21.1167,-101.6833,36.0,Low air quality,o3,2025-11-20T14:45:16.501152,success
Columbus,United States,39.9862,-82.9855,70.0,Good air quality,pm10,2025-11-20T14:45:17.353445,success
Puebla,Mexico,19.0333,-98.1833,47.0,Moderate air quality,pm25,2025-11-20T14:45:18.226444,success
Biên Hòa,Vietnam,10.95,106.8167,83.0,Excellent air quality,pm25,2025-11-20T14:45:19.087382,success
Chengtangcun,China,35.0833,117.15,21.0,Low air quality,pm25,2025-11-20T14:45:19.917787,success
Yopougon,Côte d’Ivoire,5.3748,-4.0867,,,,2025-11-20T14:45:20.794677,error
Hebi,China,35.748,114.297,50.0,Moderate air quality,pm25,2025-11-20T14:45:21.639379,success
Shīrāz,Iran,29.61,52.5425,,,,2025-11-20T14:45:22.475816,error
Dushanbe,Tajikistan,38.5367,68.78,,,,2025-11-20T14:45:23.275703,error
Madurai,India,9.9252,78.1198,36.0,Low air quality,pm25,2025-11-20T14:45:24.174815,success
Huzhou,China,30.8925,120.0875,36.0,Low air quality,pm25,2025-11-20T14:45:24.999011,success
Harare,Zimbabwe,-17.8292,31.0522,,,,2025-11-20T14:45:25.810441,error
Tabrīz,Iran,38.0817,46.2992,,,,2025-11-20T14:45:26.624826,error
Jamshedpur,India,22.7925,86.1842,26.0,Low air quality,pm25,2025-11-20T14:45:27.428822,success
Baicheng,China,45.62,122.838,77.0,Good air quality,o3,2025-11-20T14:45:28.246400,success
San José,Costa Rica,9.9325,-84.08,80.0,Excellent air quality,o3,2025-11-20T14:45:29.085320,success
